{
    "1": {
        "address": "Trondheim 106",
        "location": "Brungmarka",
        "name": "Flåkoia",
        "num_beds": 11,
        "latitude": "63.15702",
        "longitude": "10.36538"
    },
    "2": {
        "address": "Fosen 113",
        "location": "Fosenhalvøya",
        "name": "Fosenkoia",
        "num_beds": 10,
        "latitude": "63.56813",
        "longitude": "10.29541"
    },
    "3": {
        "address": "Selbu 107",
        "location": "Mostadmarka",
        "name": "Heinfjordstua",
        "num_beds": 25,
        "latitude": "63.31492",
        "longitude": "10.75206"
    },
    "4": {
        "address": "Meråker-Tydal 108",
        "location": "Sylane og Tydal",
        "name": "Hognabu",
        "num_beds": 11,
        "latitude": "63.10875",
        "longitude": "11.53450"
    },
    "5": {
        "address": "Meråker-Tydal 108",
        "location": "Sylane og Tydal",
        "name": "Holmsåkoia",
        "num_beds": 20,
        "latitude": "63.08642",
        "longitude": "11.64870"
    },
    "6": {
        "address": "Fosen 113",
        "location": "Fosenhalvøya",
        "name": "Holvassgamma",
        "num_beds": 8,
        "latitude": "63.82745",
        "longitude": "10.37133"
    },
    "7": {
        "address": "Oppdal 98",
        "location": "Ilfjellet",
        "name": "Iglbu",
        "num_beds": 8,
        "latitude": "62.96119",
        "longitude": "10.09028"
    },
    "8": {
        "address": "Oppdal 98",
        "location": "Trollheimen",
        "name": "Kamtjønnkoia",
        "num_beds": 6,
        "latitude": "62.74317",
        "longitude": "09.29119"
    },
    "9": {
        "address": "Trondheim 106",
        "location": "Brungmarka",
        "name": "Kråklikåten",
        "num_beds": 4,
        "latitude": "63.12292",
        "longitude": "10.59167"
    },
    "10": {
        "address": "Forollhogna 99",
        "location": "Gauldalen",
        "name": "Kvernmovollen",
        "num_beds": 8,
        "latitude": "62.92831",
        "longitude": "10.97890"
    },
    "11": {
        "address": "Orkanger 105",
        "location": "Rindal",
        "name": "Kåsen",
        "num_beds": 8,
        "latitude": "63.12375",
        "longitude": "09.44338"
    },
    "12": {
        "address": "Trondheim 106",
        "location": "Brungmarka",
        "name": "Lynhøgen",
        "num_beds": 4,
        "latitude": "63.21028",
        "longitude": "10.70875"
    },
    "13": {
        "address": "Forollhogna 99, Selbu 107",
        "location": "Gauldalen",
        "name": "Mortenskåten",
        "num_beds": 2,
        "latitude": "63.01650",
        "longitude": "10.95894"
    },
    "14": {
        "address": "Trondheim 106",
        "location": "Brungmarka",
        "name": "Nicokoia",
        "num_beds": 8,
        "latitude": "63.16349",
        "longitude": "10.52637"
    },
    "15": {
        "address": "Trollheimen",
        "location": "Kyrksæterøra 104",
        "name": "Rindalsløa",
        "num_beds": 4,
        "latitude": "63.01999",
        "longitude": "09.19786"
    },
    "16": {
        "address": "Selbu 107",
        "location": "Mostadmarka",
        "name": "Selbukåten",
        "num_beds": 2,
        "latitude": "63.32851",
        "longitude": "11.02758"
    },
    "17": {
        "address": "Selbu 107",
        "location": "Meråker",
        "name": "Sonvasskoia",
        "num_beds": 8,
        "latitude": "63.39030",
        "longitude": "11.41852"
    },
    "18": {
        "address": "Meråker-Tydal 108",
        "location": "Sylane og Tydal",
        "name": "Stabburet",
        "num_beds": 2,
        "latitude": "63.14200",
        "longitude": "11.72236"
    },
    "19": {
        "address": "Kyrksæterøra 104",
        "location": "Vinjeøra",
        "name": "Stakkslettbua",
        "num_beds": 11,
        "latitude": "63.14713",
        "longitude": "09.11576"
    },
    "20": {
        "address": "Oppdal 98",
        "location": "Trollheimen",
        "name": "Telin",
        "num_beds": 9,
        "latitude": "62.87615",
        "longitude": "09.66196"
    },
    "21": {
        "address": "Forollhogna 99",
        "location": "Gauldalen",
        "name": "Taagaabu",
        "num_beds": 6,
        "latitude": "62.82197",
        "longitude": "10.60875"
    },
    "22": {
        "address": "Oppdal 98",
        "location": "Oppdal",
        "name": "Vekvessætra",
        "num_beds": 20,
        "latitude": "62.70850",
        "longitude": "09.80087"
    },
    "23": {
        "address": "Tynset 90",
        "location": "Rørosvidda",
        "name": "Øvensenget",
        "num_beds": 8,
        "latitude": "62.41219",
        "longitude": "11.18655"
    }
}
